City_ID,City,Lat,Lng,Max Temp,Humidity,Cloudiness,Wind Speed,Country,Date
0,nguigmi,14.2495,13.1092,37.04,30,38,2.64,NE,1720101275
1,yola,9.2,12.4833,35.04,38,80,2.84,NG,1720101277
2,tucumcari,35.1717,-103.725,20.91,64,0,2.57,US,1720101279
3,udachny,66.4167,112.4,13.91,47,5,2.38,RU,1720101281
4,manicore,-5.8092,-61.3003,32.5,50,35,1.07,BR,1720101283
5,margaret river,-33.95,115.0667,10.31,84,9,4.53,AU,1720101284
6,hami,42.8,93.45,31.12,16,7,2.54,CN,1720101286
7,grytviken,-54.2811,-36.5092,-4.73,58,39,0.28,GS,1720101288
8,invercargill,-46.4,168.35,6.37,87,86,4.53,NZ,1720101290
9,rehoboth,-23.3167,17.0833,22.97,7,1,2.54,,1720101292
10,hoemul-li,41.4339,129.67,20.25,79,100,1.12,KP,1720101294
11,edinburgh of the seven seas,-37.0676,-12.3116,15.26,82,100,20.33,SH,1720101296
12,hawaiian paradise park,19.5933,-154.9731,21.73,96,100,2.06,US,1720101298
13,taltal,-25.4,-70.4833,15.36,68,28,1.59,CL,1720101300
14,odzak,45.0111,18.3267,24.65,51,68,0.95,BA,1720101302
15,longyearbyen,78.2186,15.6401,6.91,76,75,6.69,SJ,1720101304
16,conduaga,8.862,117.4893,26.54,86,27,2.55,PH,1720101305
17,port-aux-francais,-49.35,70.2167,1.36,59,38,5.3,TF,1720101307
18,arno,60.1167,18.6333,16.55,52,99,8.09,SE,1720101309
19,ushuaia,-54.8,-68.3,2.79,93,100,2.06,AR,1720101311
20,dul'durga,50.6761,113.5931,20.51,52,100,1.89,RU,1720101313
21,fangshan,39.6983,115.9925,26.11,66,3,2.29,CN,1720101315
22,adamstown,-25.066,-130.1015,20.12,70,54,4.26,PN,1720101317
23,san patricio,28.017,-97.5169,31.06,71,4,5.68,US,1720101319
24,bilibino,68.0546,166.4372,14.99,63,100,2.01,RU,1720101321
25,pasni,25.2631,63.471,29.04,84,100,3.49,PK,1720101322
26,san antonio de pale,-1.4014,5.6325,23.91,80,52,5.45,GQ,1720101324
27,vorgashor,67.5833,63.95,22.89,57,3,9.08,RU,1720101326
28,kavaratti,10.5669,72.642,28.38,86,71,6.2,IN,1720101328
29,chadan,51.2833,91.5833,18.33,53,6,0.8,RU,1720101330
30,punta arenas,-53.15,-70.9167,3.95,72,75,4.63,CL,1720101332
31,waitangi,-43.9535,-176.5597,7.68,96,43,1.79,NZ,1720101334
32,la gomera,14.0833,-91.05,23.84,77,27,2.37,GT,1720101336
33,puerto natales,-51.7236,-72.4875,3.25,65,75,6.69,CL,1720101338
34,fale old settlement,-9.3852,-171.2468,28.22,80,39,9.75,TK,1720101339
35,midvagur,62.0511,-7.1939,13.46,67,100,1.03,FO,1720101341
36,iqaluit,63.7506,-68.5145,3.85,100,100,2.06,CA,1720101343
37,chibougamau,49.9168,-74.3659,17.79,82,100,7.2,CA,1720101345
38,paita,-5.0892,-81.1144,20.28,78,70,4.27,PE,1720101347
39,joshimath,30.5667,79.5667,18.96,97,100,0.57,IN,1720101349
40,cidreira,-30.1811,-50.2056,13.45,91,100,3.38,BR,1720101351
41,sibolga,1.7427,98.7792,25.73,87,49,1.26,ID,1720101353
42,tura,25.5198,90.2201,24.54,97,100,3.31,IN,1720101355
43,college,64.8569,-147.8028,14.18,76,98,4.2,US,1720101357
44,cheonan,36.8065,127.1522,29.04,93,15,6.16,KR,1720101359
45,capelinha,-17.6914,-42.5158,21.89,42,0,2.95,BR,1720101361
46,aoulef,26.9667,1.0833,45.9,4,0,1.04,DZ,1720101362
47,blackmans bay,-43.0167,147.3167,4.29,88,5,0.45,AU,1720101364
48,merizo village,13.2658,144.6691,27.77,94,100,4.7,GU,1720101366
49,coahuayana de hidalgo,18.7,-103.6583,25.9,74,39,0.81,MX,1720101368
50,klyuchi,52.2667,79.1667,20.75,68,98,2.6,RU,1720101370
51,kuanda,56.3161,116.0806,19.73,78,69,0.49,RU,1720101372
52,whitehorse,60.7161,-135.0538,11.01,76,75,2.57,CA,1720101374
53,bishkul,54.7803,69.1033,21.69,66,37,2.46,KZ,1720101376
54,albany,42.6001,-73.9662,24.83,68,100,0.45,US,1720101378
55,antsiranana,-12.2787,49.2917,24.8,69,76,7.09,MG,1720101379
56,kapuskasing,49.4169,-82.4331,17.05,72,40,5.66,CA,1720101381
57,serhiyivka,46.0272,30.3768,26.33,57,51,5.57,UA,1720101383
58,lihue,21.9789,-159.3672,24.58,85,100,6.17,US,1720101256
59,lebu,-37.6167,-73.65,7.3,77,45,5.17,CL,1720101387
60,ar rass,25.8694,43.4973,39.65,8,0,1.84,SA,1720101389
61,utrik,11.2278,169.8474,27.68,80,99,6.49,MH,1720101391
62,thompson,55.7435,-97.8558,13.09,88,40,3.6,CA,1720101395
63,stanley,54.868,-1.6985,15.85,60,17,10.28,GB,1720101397
64,tezu,27.9167,96.1667,23.67,99,100,1.6,IN,1720101399
65,kudymkar,59.0173,54.656,29.48,56,42,3.67,RU,1720101401
66,bodo,67.28,14.405,21.64,59,20,4.63,NO,1720101402
67,lompoc,34.6391,-120.4579,11.23,100,100,2.06,US,1720101159
68,hithadhoo,-0.6,73.0833,29.14,75,100,3.79,MV,1720101406
69,nemuro,43.3236,145.575,13.44,99,100,3.55,JP,1720101408
70,georgetown,5.4112,100.3354,27.97,69,20,1.03,MY,1720101410
71,revda,56.801,59.9303,28.45,60,12,1.72,RU,1720101412
72,daru,-9.0763,143.2092,25.14,90,100,7.99,PG,1720101414
73,ad-damazin,11.7891,34.3592,30.04,53,74,2.5,SD,1720101416
74,chonchi,-42.6128,-73.8092,2.29,84,67,1.28,CL,1720101417
75,dasnapur,19.654,78.5121,29.63,65,100,3.44,IN,1720101419
76,banda aceh,5.5577,95.3222,27.45,75,98,5.18,ID,1720101421
77,jamestown,42.097,-79.2353,25.25,78,40,1.54,US,1720101423
78,azhikkal,11.9,75.3667,26.4,84,100,1.76,IN,1720101425
79,kingston,17.997,-76.7936,28.91,71,100,2.88,JM,1720101429
80,west island,-12.1568,96.8225,27.99,83,75,5.66,CC,1720101431
81,flying fish cove,-10.4217,105.6791,25.82,88,100,7.72,CX,1720101433
82,al bawiti,28.3492,28.8659,41.08,15,1,7.63,EG,1720101435
83,afaahiti,-17.75,-149.2833,22.81,82,56,9.22,PF,1720101437
84,dawson creek,55.7666,-120.2362,9.8,93,0,1.03,CA,1720101439
85,charters towers,-20.1,146.2667,18.22,81,100,3.75,AU,1720100920
86,talnakh,69.4865,88.3972,15.15,66,100,3.04,RU,1720101442
87,shiraoi,42.55,141.35,21.99,94,0,2.35,JP,1720101444
88,soio,-6.1349,12.3689,24.25,69,33,4.03,AO,1720101446
89,antofagasta,-23.65,-70.4,14.6,63,0,1.24,CL,1720101448
90,papatowai,-46.5619,169.4708,7.64,80,89,4.76,NZ,1720101450
91,dunay,42.8803,132.3375,16.7,89,100,1.23,RU,1720101452
92,santana,-0.0583,-51.1817,29.1,89,75,1.54,BR,1720101454
93,oxapampa,-10.5775,-75.4017,18.51,69,74,1.01,PE,1720101456
94,labytnangi,66.6572,66.4183,24.53,65,37,3.9,RU,1720101458
95,igarka,67.4667,86.5833,20.73,59,63,1.59,RU,1720101459
96,puerto ayora,-0.7393,-90.3518,21.42,97,100,1.87,EC,1720101461
97,lhuentse,27.6679,91.1839,21.48,99,100,1.3,BT,1720101463
98,masterton,-40.9597,175.6575,5.61,91,97,0.9,NZ,1720101465
99,mogocha,53.7333,119.7667,22.33,57,94,1.55,RU,1720101467
100,cannonvale,-20.2833,148.7,18.66,82,97,8.96,AU,1720101469
101,fukuecho,32.6881,128.8419,25.17,94,0,5.89,JP,1720101471
102,fort st. john,56.2499,-120.8529,11.94,82,20,4.12,CA,1720101473
103,goondiwindi,-28.55,150.3167,10.26,71,0,4.49,AU,1720101475
104,kodiak,57.79,-152.4072,3.73,100,0,3.09,US,1720101478
105,codrington,-38.2667,141.9667,10.49,77,100,4.21,AU,1720101480
106,rouissat,31.9243,5.3502,40.04,12,0,2.06,DZ,1720101482
107,richards bay,-28.783,32.0377,21.15,48,9,6.72,ZA,1720101484
108,petropavlovsk-kamchatsky,53.0452,158.6483,8.33,100,100,2.0,RU,1720101486
109,carnarvon,-24.8667,113.6333,17.25,42,0,7.58,AU,1720101488
110,olonkinbyen,70.9221,-8.7187,1.91,96,53,6.13,SJ,1720101490
111,beloyarskiy,63.7119,66.6722,30.28,43,75,3.06,RU,1720101492
112,newman,37.3138,-121.0208,24.6,30,0,1.3,US,1720101494
113,erenhot,43.6475,111.9767,26.25,29,88,3.35,CN,1720101496
114,bethel,41.3712,-73.414,24.53,79,100,2.57,US,1720101497
115,yellowknife,62.456,-114.3525,16.29,82,75,4.02,CA,1720101499
116,st. john's,47.5649,-52.7093,18.21,77,75,4.12,CA,1720101503
117,ribeira grande,38.5167,-28.7,23.22,64,75,3.09,PT,1720101505
118,salalah,17.0151,54.0924,27.77,88,100,4.15,OM,1720101507
119,mandalgovi,45.7625,106.2708,20.03,55,100,4.98,MN,1720101509
120,glendive,47.1053,-104.7125,15.98,88,100,3.09,US,1720101511
121,acarau,-2.8856,-40.12,29.51,57,57,6.69,BR,1720101513
122,puerto baquerizo moreno,-0.9,-89.6,21.33,84,100,3.11,EC,1720101514
123,santa rosa,14.3122,121.1114,28.3,84,96,1.44,PH,1720101516
124,quellon,-43.1167,-73.6167,5.18,71,44,4.29,CL,1720101518
125,kavieng,-2.5744,150.7967,27.04,81,100,3.08,PG,1720101520
126,guatrache,-37.6678,-63.5302,6.16,38,0,6.82,AR,1720101522
127,brookings,44.3114,-96.7984,20.06,93,75,2.57,US,1720101292
128,la'ie,21.6477,-157.9253,23.66,93,44,1.34,US,1720101526
129,tanaina,61.6269,-149.4281,12.2,83,100,0.0,US,1720101528
130,constantia,44.1833,28.65,28.38,46,99,2.27,RO,1720101529
131,anadyr,64.75,177.4833,9.28,93,75,2.0,RU,1720101531
132,al jawf,29.5,38.75,37.41,8,0,5.51,SA,1720101533
133,wailua homesteads,22.0669,-159.378,24.24,89,100,6.17,US,1720101535
134,rikaze,29.25,88.8833,18.38,45,100,5.29,CN,1720101537
135,saldanha,-33.0117,17.9442,15.32,67,47,6.92,ZA,1720101539
136,kasongo-lunda,-6.4667,16.8167,36.23,14,28,2.1,CD,1720101541
137,nili,33.7218,66.1302,31.28,13,90,7.89,AF,1720101543
138,bonthe,7.5264,-12.505,27.69,72,100,4.66,SL,1720101545
139,napier,-39.4833,176.9167,8.28,78,94,3.54,NZ,1720101547
140,cuenca,-2.8833,-78.9833,11.07,87,75,1.54,EC,1720101529
141,puerto armuelles,8.2833,-82.8667,24.99,90,100,3.58,PA,1720101550
142,bubaque,11.2833,-15.8333,27.18,80,100,7.17,GW,1720101552
143,saipan,15.1355,145.701,28.39,83,20,5.66,MP,1720101554
144,aasiaat,68.7098,-52.8699,3.43,73,0,5.24,GL,1720101556
145,corner brook,48.9667,-57.9484,20.09,40,100,3.7,CA,1720101558
146,port elizabeth,-33.918,25.5701,18.39,62,0,10.29,ZA,1720101560
147,kyongwon,42.8136,130.1528,19.0,83,100,0.66,KP,1720101562
148,isafjordur,66.0755,-23.124,7.02,76,100,6.17,IS,1720101564
149,kununurra,-15.7667,128.7333,17.44,23,5,3.51,AU,1720101566
150,el granada,37.5027,-122.4694,20.48,81,20,3.09,US,1720101567
151,massaguet,12.4755,15.4365,36.36,32,100,0.31,TD,1720101569
152,achinsk,56.2694,90.4993,19.15,88,99,1.75,RU,1720101571
153,salinopolis,-0.6136,-47.3561,29.02,68,69,4.52,BR,1720101573
154,puerto ayacucho,5.6639,-67.6236,27.63,81,77,1.6,VE,1720101575
155,qaqortoq,60.7167,-46.0333,4.31,82,28,4.1,GL,1720101577
156,gadzhiyevo,69.2551,33.3362,13.15,65,92,1.71,RU,1720101579
157,bethanie,-26.4833,17.15,23.48,12,6,2.29,,1720101581
158,kutum,14.2,24.6667,31.56,26,91,2.07,SD,1720101583
159,bredasdorp,-34.5322,20.0403,16.49,56,15,4.37,ZA,1720101584
160,fairbanks,64.8378,-147.7164,14.19,78,97,4.21,US,1720101298
161,nuuk,64.1835,-51.7216,9.93,57,88,1.34,GL,1720101588
162,dudinka,69.4058,86.1778,18.33,70,92,1.52,RU,1720101590
163,hermanus,-34.4187,19.2345,17.67,66,25,9.92,ZA,1720101592
164,kuta,-8.7233,115.1723,26.97,83,20,7.2,ID,1720101594
165,tual,-5.6667,132.75,26.17,84,100,10.64,ID,1720101596
166,ugoofaaru,5.6667,73.0,28.95,79,65,2.95,MV,1720101598
167,prince rupert,54.3161,-130.3201,11.83,91,100,2.06,CA,1720101599
168,namibe,-15.1961,12.1522,21.95,61,52,5.26,AO,1720101601
169,praia da vitoria,38.7333,-27.0667,23.75,64,75,2.7,PT,1720101603
170,vernon,50.2581,-119.2691,15.8,66,0,5.14,CA,1720101605
171,ilulissat,69.2167,-51.1,5.52,57,14,1.75,GL,1720101608
172,okondja,-0.6549,13.6753,30.15,53,93,0.98,GA,1720101610
173,glushkovo,51.3392,34.6328,32.39,31,63,3.54,RU,1720101612
174,tiksi,71.6872,128.8694,2.54,91,100,3.92,RU,1720101613
175,atafu village,-8.5421,-172.5159,28.33,79,27,8.81,TK,1720101615
176,kirensk,57.7853,108.1119,22.55,56,6,4.02,RU,1720101617
177,hecun,36.5333,114.1111,27.04,61,26,2.43,CN,1720101619
178,vilyuchinsk,52.9306,158.4028,9.15,95,100,1.65,RU,1720101621
179,swan hill,-35.3378,143.5544,7.49,83,6,3.57,AU,1720101623
180,iskateley,67.6803,53.1512,12.37,87,99,12.06,RU,1720101625
181,port alfred,-33.5906,26.891,18.43,52,2,3.58,ZA,1720101627
182,kiunga,-6.1219,141.2906,23.52,99,100,1.97,PG,1720101629
183,ancud,-41.8697,-73.8203,4.58,71,22,1.67,CL,1720101630
184,derebucak,37.3918,31.5092,24.07,39,2,6.29,TR,1720101632
185,mount gambier,-37.8333,140.7667,5.97,94,1,2.51,AU,1720101634
186,port shepstone,-30.7414,30.455,21.01,38,0,10.5,ZA,1720101636
187,margate,51.3813,1.3862,20.39,45,15,0.89,GB,1720101638
188,pacific grove,36.6177,-121.9166,17.53,89,0,0.0,US,1720101640
189,dzhalagash,45.0833,64.6667,32.46,24,8,6.57,KZ,1720101642
190,thinadhoo,0.5333,72.9333,29.5,68,67,1.37,MV,1720101644
191,sisimiut,66.9395,-53.6735,9.16,56,0,0.34,GL,1720101646
192,mantua,45.1667,10.7833,27.42,54,1,0.45,IT,1720101648
193,luderitz,-26.6481,15.1594,18.31,60,31,10.07,,1720101649
194,nikolayevsk-on-amure,53.1406,140.73,16.63,88,27,1.02,RU,1720101651
195,weno,7.4515,151.8468,28.5,75,100,3.61,FM,1720101653
196,tupiza,-21.45,-65.7167,14.27,5,0,0.59,BO,1720101655
197,kamaishi,39.2667,141.8833,20.87,74,100,3.49,JP,1720101657
198,woolgoolga,-30.1106,153.2007,12.8,67,100,8.24,AU,1720101659
199,ola,59.5833,151.2833,10.08,92,69,1.2,RU,1720101661
200,kabare,-2.4683,28.8242,26.5,35,15,1.65,CD,1720101663
201,nadym,65.5333,72.5167,26.79,50,62,5.43,RU,1720101665
202,rabaul,-4.1967,152.1721,26.38,83,100,4.64,PG,1720101666
203,severnoye,56.3491,78.3619,19.89,77,14,3.35,RU,1720101668
204,ust'-ilimsk,58.0006,102.6619,22.62,59,14,2.27,RU,1720101670
205,baikonur,45.6167,63.3167,32.52,16,0,7.32,KZ,1720101672
206,smithers,54.7804,-127.1743,5.18,100,20,1.54,CA,1720101674
207,ozerne,50.1782,28.7338,24.2,69,53,4.64,UA,1720101676
208,geraldton,-28.7667,114.6,13.15,65,0,5.2,AU,1720101678
209,rio grande,-32.035,-52.0986,11.08,71,100,1.22,BR,1720101680
210,pierre,44.3683,-100.351,16.03,91,100,4.12,US,1720101681
211,kalmunai,7.4167,81.8167,29.59,69,100,6.5,LK,1720101683
212,newport,51.5877,-2.9984,18.95,64,100,9.48,GB,1720101685
213,villa gesell,-37.2639,-56.973,7.25,48,0,8.78,AR,1720101687
214,hamilton,39.1834,-84.5333,26.23,93,100,2.57,US,1720101689
215,amlame,7.4667,0.9,27.99,67,92,3.22,TG,1720101691
216,hastings,50.8552,0.5729,21.22,63,21,10.92,GB,1720101693
217,saint-philippe,-21.3585,55.7679,22.77,75,63,6.54,RE,1720101695
218,selebi-phikwe,-21.979,27.8498,27.07,10,0,5.0,BW,1720101696
219,meulaboh,4.1363,96.1285,26.17,83,100,1.82,ID,1720101698
220,tangalle,6.024,80.7911,27.09,80,1,4.84,LK,1720101700
221,cabo san lucas,22.8909,-109.9124,27.64,33,27,0.71,MX,1720100881
222,cruzeiro do oeste,-23.785,-53.0733,26.55,31,3,5.49,BR,1720101704
223,auki,-8.7676,160.7034,24.4,85,100,2.47,SB,1720101706
224,posse,-14.0931,-46.3694,26.8,31,23,2.86,BR,1720101708
225,novoishimskiy,53.1981,66.7694,23.36,59,7,1.59,KZ,1720101710
226,santa terezinha,-29.9002,-50.0904,13.67,89,100,4.49,BR,1720101712
227,keflavik,64.0049,-22.5624,12.24,71,75,6.69,IS,1720101714
228,usinsk,65.9939,57.5281,19.12,63,26,13.72,RU,1720101715
229,mount isa,-20.7333,139.5,14.87,54,4,5.09,AU,1720101628
230,halden,59.1226,11.3871,14.24,95,100,3.87,NO,1720101719
231,balqash,46.8481,74.995,25.33,47,75,6.0,KZ,1720101721
232,greymouth,-42.4667,171.2,1.63,89,10,2.59,NZ,1720101723
233,nizhnesortymskiy,62.4397,71.7603,27.42,52,69,4.36,RU,1720101725
234,icano,-28.9193,-65.3282,15.55,45,86,2.63,AR,1720101729
235,pisco,-13.7,-76.2167,16.03,94,100,2.57,PE,1720101730
236,anaconda,46.1285,-112.9423,11.82,58,74,2.03,US,1720101732
237,sao gabriel da cachoeira,-0.1303,-67.0892,25.89,89,75,1.03,BR,1720101734
238,muang phon-hong,18.4928,102.4172,24.57,93,100,0.33,LA,1720101736
239,selkirk,50.1436,-96.8845,19.54,83,99,0.89,CA,1720101549
240,sterling,39.0062,-77.4286,30.37,63,40,0.89,US,1720101740
241,namdrik,5.5994,168.1028,27.02,76,100,2.71,MH,1720101741
242,djamaa,33.5339,5.9931,39.03,12,0,2.95,DZ,1720101743
243,kalachinsk,55.0529,74.5751,18.69,84,72,4.68,RU,1720101745
244,sant antoni de portmany,38.9807,1.3036,29.1,63,20,4.63,ES,1720101747
245,brenham,30.1669,-96.3977,28.97,56,40,3.6,US,1720101749
246,queenstown,-31.8976,26.8753,12.7,31,0,7.34,ZA,1720101751
247,knyaze-volkonskoye,48.4642,135.4567,23.19,93,9,2.27,RU,1720101753
248,lobez,53.6392,15.6213,14.84,85,100,5.78,PL,1720101755
249,cloquet,46.7216,-92.4594,18.63,76,0,0.0,US,1720101756
250,cambridge,43.3601,-80.3127,26.01,73,40,1.54,CA,1720101758
251,gao,16.6362,1.637,37.12,29,44,6.55,ML,1720101760
252,port mathurin,-19.6833,63.4167,22.42,68,98,10.88,MU,1720101762
253,kruisfontein,-34.0033,24.7314,17.16,61,1,8.18,ZA,1720101766
254,avarua,-21.2078,-159.775,24.03,83,75,7.2,CK,1720101767
255,lethem,3.3803,-59.7968,30.5,62,10,4.29,GY,1720101769
256,elliot,-31.3333,27.85,11.13,29,0,6.11,ZA,1720101771
257,vilyuysk,63.7553,121.6247,9.81,71,7,2.51,RU,1720101773
258,remire-montjoly,4.9167,-52.2667,30.02,70,75,2.06,GF,1720101775
259,nova sintra,14.8667,-24.7167,25.77,81,46,2.44,CV,1720101777
260,takaungu,-3.6837,39.8566,28.27,70,19,7.06,KE,1720101779
261,kattivakkam,13.2167,80.3167,32.05,86,100,7.21,IN,1720101781
262,pimentel,-6.8367,-79.9342,20.16,77,0,1.03,PE,1720101783
263,nar'yan-mar,67.6713,53.087,12.18,88,100,12.1,RU,1720101785
264,robertsonpet,12.9667,78.2833,28.04,47,97,5.4,IN,1720101787
265,wajir,1.7471,40.0573,30.98,40,75,4.12,KE,1720101788
266,ar rutbah,33.0381,40.2848,37.55,12,0,5.65,IQ,1720101790
267,salekhard,66.53,66.6019,22.51,73,53,1.82,RU,1720101792
268,turgen,43.4006,77.5933,24.23,39,21,1.72,KZ,1720101794
269,badger,64.8,-147.5333,12.27,81,95,0.45,US,1720101796
270,piti village,13.4626,144.6933,28.27,90,96,3.89,GU,1720101798
271,nantucket,41.2835,-70.0995,24.49,74,91,6.41,US,1720101800
272,salvador,13.8333,-88.9167,22.81,91,84,1.38,SV,1720101802
273,yuzhno-kurilsk,44.0306,145.8556,13.31,99,42,1.82,RU,1720101803
274,broken hill,-31.95,141.4333,9.54,68,54,7.01,AU,1720101805
275,tokar,18.4254,37.729,42.41,16,29,5.13,SD,1720101807
276,kidal,18.4411,1.4078,38.26,25,17,5.13,ML,1720101809
277,mindelo,16.8901,-24.9804,29.75,62,20,5.14,CV,1720101811
278,gisborne,-38.6533,178.0042,9.32,84,100,2.27,NZ,1720101813
279,ormara,25.2088,64.6357,28.8,86,100,5.07,PK,1720101815
280,rabak,13.1809,32.74,37.7,26,15,3.64,SD,1720101817
281,gushu,31.5598,118.4829,28.99,83,67,2.12,CN,1720101818
282,issia,6.4922,-6.5856,28.64,59,100,2.28,CI,1720101820
283,nagqu,31.5,92.0,8.58,69,31,1.21,CN,1720101822
284,morioka,39.7036,141.1525,17.93,97,100,1.85,JP,1720101824
285,sovetskaya gavan',48.9723,140.2878,16.57,98,100,3.26,RU,1720101826
286,ust-nera,64.5667,143.2,12.64,88,55,1.58,RU,1720101830
287,zhaoqing,23.0512,112.4597,26.53,83,13,1.31,CN,1720101831
288,enewetak,11.3474,162.3373,28.42,78,85,6.46,MH,1720101835
289,mombetsu,44.3525,143.3525,16.48,75,13,1.99,JP,1720101837
290,qoryooley,1.7878,44.53,27.09,59,51,7.76,SO,1720101839
291,la passe,45.5549,-0.8967,22.13,69,4,5.13,FR,1720101841
292,sur,22.5667,59.5289,31.57,75,88,2.61,OM,1720101843
293,mwinilunga,-11.7358,24.4293,27.04,19,5,3.27,ZM,1720101845
294,concordia,-31.393,-58.0209,10.99,70,0,3.6,AR,1720101846
295,yankton,42.8711,-97.3973,21.14,78,100,4.12,US,1720101848
296,taoudenni,22.6783,-3.9836,44.13,16,9,6.5,ML,1720101850
297,cholpon-ata,42.6494,77.0823,21.03,60,77,1.44,KG,1720101852
298,fort mcmurray,56.7268,-111.381,12.77,94,0,0.51,CA,1720101613
299,bojnurd,37.4747,57.329,33.97,24,20,8.23,IR,1720101856
300,lloydminster,53.2835,-110.0016,14.12,94,20,3.6,CA,1720101852
301,helena,46.5927,-112.0361,13.55,82,20,1.54,US,1720101859
302,floro,61.5996,5.0328,18.04,55,75,2.57,NO,1720101861
303,toliara,-23.35,43.6667,23.61,57,0,5.07,MG,1720101863
304,kuantan,3.8077,103.326,25.06,78,20,3.6,MY,1720101867
305,manaure,11.7751,-72.4445,29.02,69,100,2.16,CO,1720101869
306,azuaga,38.2667,-5.6833,38.87,17,5,1.61,ES,1720101871
307,beyneu,45.3167,55.2,36.37,18,100,2.3,KZ,1720101873
308,itaituba,-4.2761,-55.9836,30.09,74,40,2.06,BR,1720101875
309,grand forks,47.9417,-97.4337,19.96,77,40,2.57,US,1720101877
310,holualoa,19.6228,-155.9522,22.15,81,0,2.57,US,1720101878
311,kristiansund,63.1115,7.732,21.03,37,0,5.66,NO,1720101880
312,yelets,52.6237,38.5017,30.23,47,15,5.51,RU,1720101882
313,shakhan,49.8233,72.6342,19.38,69,45,5.7,KZ,1720101884
314,melfort,52.8667,-104.6177,14.07,88,28,2.06,CA,1720101886
315,bel ombre,-4.6167,55.4167,27.91,69,20,4.12,SC,1720101888
316,castillos,-34.1667,-53.8333,9.35,70,100,2.0,UY,1720101890
317,kodinsk,58.6881,99.1844,24.55,58,100,2.11,RU,1720101892
318,sao jose da coroa grande,-8.8978,-35.1478,26.8,62,38,4.23,BR,1720101893
319,coquimbo,-29.9533,-71.3436,11.1,89,100,1.54,CL,1720101895
320,berezovo,63.9381,65.0419,30.35,42,73,5.94,RU,1720101897
321,port lincoln,-34.7333,135.8667,12.38,71,20,8.35,AU,1720101899
322,manismata,-2.4667,111.0333,23.64,98,95,1.13,ID,1720101901
323,salanso,12.1833,-4.0833,29.39,58,93,3.63,BF,1720101903
324,kotabumi,-4.8333,104.9,25.04,90,100,1.76,ID,1720101905
325,faya-largeau,17.9257,19.1043,43.04,5,10,4.54,TD,1720101907
326,shindand,33.3029,62.1474,39.7,9,7,11.05,AF,1720101909
327,samitah,16.596,42.9444,36.72,38,2,11.0,SA,1720101910
328,guiuan,11.0333,125.7247,28.99,74,97,2.48,PH,1720101912
329,gerash,27.6652,54.1371,42.08,13,1,2.57,IR,1720101914
330,baoshan,46.5586,131.4244,19.91,95,100,2.47,CN,1720101916
331,hillsboro,45.5229,-122.9898,16.34,84,0,0.45,US,1720101640
332,east london,-33.0153,27.9116,19.52,37,0,9.26,ZA,1720101920
333,colchani,-20.3,-66.9333,3.85,25,6,1.51,BO,1720101922
334,esikhaleni,-28.871,31.8996,21.12,49,4,7.84,ZA,1720101923
335,mar del plata,-38.0023,-57.5575,8.01,57,0,7.72,AR,1720101925
336,bollnas,61.3482,16.3946,18.44,50,100,5.15,SE,1720101929
337,fort bragg,35.139,-79.006,30.38,73,98,1.79,US,1720101931
338,mananjary,-21.2167,48.3333,22.56,75,0,4.97,MG,1720101933
339,noumea,-22.2763,166.4572,22.78,99,92,2.78,NC,1720101911
340,pita,10.8333,-12.5833,27.03,81,97,2.31,GN,1720101936
341,salto,-31.3833,-57.9667,11.04,70,0,4.12,UY,1720101938
342,saint-pierre,-21.3393,55.4781,22.82,68,20,1.03,RE,1720101940
343,annau,37.8876,58.516,37.72,13,0,5.14,TM,1720101942
344,kebili,33.7044,8.969,35.61,19,0,3.79,TN,1720101944
345,tazovsky,67.4667,78.7,18.18,68,99,1.36,RU,1720101946
346,monrovia,6.3005,-10.7969,29.87,69,53,4.49,LR,1720101948
347,vargashi,55.3556,65.8467,24.69,80,38,2.66,RU,1720101950
348,papao,-17.75,-149.55,23.7,80,9,10.25,PF,1720101952
349,noosa heads,-26.3833,153.15,14.63,68,24,9.12,AU,1720101954
350,melekeok village,7.4957,134.6367,25.31,88,75,1.54,PW,1720101955
351,kalininsk,51.5,44.4758,32.74,37,55,2.4,RU,1720101957
352,puerto aysen,-45.4,-72.7,0.9,96,99,2.28,CL,1720101959
353,pariaman,-0.619,100.12,30.03,85,16,1.56,ID,1720101963
354,yamada,39.4667,141.95,19.26,80,100,2.52,JP,1720101965
355,ulysses,37.5814,-101.3552,19.77,77,20,6.69,US,1720101967
356,tadine,-21.55,167.8833,21.6,81,99,6.47,NC,1720101968
357,freetown,8.484,-13.2299,27.84,78,75,2.57,SL,1720101970
358,vorkuta,67.5,64.0,23.4,56,3,8.92,RU,1720101972
359,maceio,-9.6658,-35.7353,28.69,78,40,4.63,BR,1720101679
360,kabinda,-6.1333,24.4833,34.39,16,77,1.57,CD,1720101976
361,onega,63.9061,38.1404,19.7,57,84,1.89,RU,1720101978
362,petra,30.3222,35.4793,29.53,14,0,3.74,JO,1720101980
363,opuwo,-18.0607,13.84,29.26,10,5,2.43,,1720101982
364,onguday,50.75,86.15,14.3,90,100,0.63,RU,1720101983
365,eastham,41.8301,-69.9739,25.03,76,0,4.12,US,1720101985
366,champerico,14.3,-91.9167,25.67,77,9,3.13,GT,1720101987
367,corinto,37.9407,22.9573,25.68,66,100,0.52,GR,1720101989
368,tromso,69.6496,18.957,15.01,58,20,5.66,NO,1720101991
369,thurso,58.5927,-3.5259,13.14,78,100,7.82,GB,1720101995
370,al mijlad,11.0333,27.7333,38.27,24,12,3.71,SD,1720101997
371,bayanhongor,46.7167,100.1167,10.91,77,100,1.66,MN,1720101998
372,gilgit,35.9221,74.3087,31.1,30,78,0.94,PK,1720102002
373,tsiombe,-25.3,45.4833,23.05,54,66,1.73,MG,1720102004
374,medicine hat,50.0501,-110.6683,13.73,93,100,2.57,CA,1720101836
375,alofi,-19.0595,-169.9187,22.94,100,75,2.06,NU,1720102008
376,chui,-33.6971,-53.4616,9.26,77,100,1.93,UY,1720102010
377,dubovskoye,47.4092,42.7575,36.95,17,80,7.22,RU,1720102012
378,brokopondo,4.75,-55.1667,27.68,71,52,2.48,SR,1720102013
379,turpan,42.9333,89.1667,34.2,21,100,9.51,CN,1720102015
380,kerikeri,-35.2268,173.9474,6.06,93,10,2.24,NZ,1720102017
381,wao,7.6833,124.6833,19.24,92,100,1.23,PH,1720102019
382,roma,43.2128,-75.4557,27.27,71,0,0.0,US,1720102021
383,menongue,-14.6585,17.691,29.59,10,2,3.74,AO,1720102023
384,necochea,-38.5473,-58.7368,7.09,45,2,9.13,AR,1720102025
385,san carlos del zulia,9.0,-71.9135,28.55,74,86,1.88,VE,1720102026
386,langepas,61.2544,75.2124,25.18,54,46,0.75,RU,1720102028
387,baruun-urt,46.6806,113.2792,21.48,50,99,3.1,MN,1720102030
388,muisne,0.6,-80.0333,24.98,86,98,3.85,EC,1720102032
389,venecia,5.9628,-75.7381,20.31,90,98,0.76,CO,1720102034
390,cockburn town,21.4612,-71.1419,28.19,80,100,7.03,TC,1720102036
391,sambava,-14.2667,50.1667,24.2,67,42,6.02,MG,1720102040
392,kiruna,67.8557,20.2251,15.51,63,0,2.06,SE,1720102042
393,paddhari,22.4333,70.6,31.4,67,99,7.05,IN,1720102043
394,uturoa,-16.7333,-151.4333,26.05,75,2,9.97,PF,1720102045
395,tarauaca,-8.1614,-70.7656,29.21,52,6,0.78,BR,1720102047
396,lucapa,-8.4192,20.7447,32.52,14,41,1.94,AO,1720102049
397,lhokseumawe,5.1801,97.1507,26.54,78,100,1.1,ID,1720102051
398,saint-joseph,-21.3667,55.6167,22.21,76,50,5.95,RE,1720102053
399,kouango,4.9934,19.9619,25.47,86,100,0.72,CF,1720102055
400,haiku-pauwela,20.9219,-156.3051,22.92,73,0,5.36,US,1720102057
401,sirte,31.2089,16.5887,27.68,56,0,6.92,LY,1720102058
402,alo,6.5486,4.2686,25.95,86,99,3.63,NG,1720102060
403,kapa'a,22.0752,-159.319,24.18,85,100,6.69,US,1720102062
404,bengkulu,-3.8004,102.2655,26.3,90,88,1.86,ID,1720102064
405,santa elena de uairen,4.6167,-61.1333,24.62,64,4,4.83,VE,1720102066
406,pavlogradka,54.2024,73.5592,18.98,81,100,5.16,RU,1720102068
407,kasulu,-4.5767,30.1025,29.12,26,51,1.65,TZ,1720102070
408,kaoma,-14.7833,24.8,29.81,12,3,3.3,ZM,1720102072
409,ceelbuur,4.685,46.6176,33.81,28,54,9.65,SO,1720102073
410,san rafael del sur,11.8485,-86.4384,28.54,82,100,0.97,NI,1720102075
411,khandyga,62.6667,135.6,10.02,71,5,2.25,RU,1720102077
412,port sudan,19.6175,37.2164,34.22,50,100,2.42,SD,1720102079
413,salinas,36.6777,-121.6555,19.74,87,0,3.09,US,1720102081
414,wakkanai,45.4094,141.6739,17.03,96,70,5.87,JP,1720102083
415,darab,28.7519,54.5444,39.54,14,0,7.39,IR,1720102085
416,dunedin,-45.8742,170.5036,4.33,86,71,3.83,NZ,1720102069
417,mitsamiouli,-11.3847,43.2844,26.04,72,71,4.06,KM,1720102088
418,barkhan,29.8977,69.5256,37.49,27,76,5.52,PK,1720102090
419,beau vallon,-20.4189,57.6953,21.79,63,19,7.56,MU,1720102092
420,khanty-mansiysk,61.0042,69.0019,29.06,51,0,2.0,RU,1720102094
421,nova vicosa,-17.8919,-39.3719,27.13,52,0,1.57,BR,1720102096
422,kone,-21.0595,164.8658,19.23,85,53,2.39,NC,1720102097
423,nabire,-3.3667,135.4833,24.35,92,100,1.44,ID,1720101811
424,maxixe,-23.8597,35.3472,27.7,43,0,2.95,MZ,1720102101
425,vila velha,-20.3297,-40.2925,28.97,99,0,1.54,BR,1720102103
426,edwards,39.645,-106.5942,13.64,46,0,0.89,US,1720102105
427,portland,45.5234,-122.6762,16.8,86,0,1.34,US,1720101803
428,san pedro,14.35,121.0167,27.88,85,99,1.79,PH,1720102110
429,caleta de carquin,-11.0925,-77.6267,18.39,78,68,3.12,PE,1720102112
430,birjand,32.8663,59.2211,38.26,11,40,3.09,IR,1720102114
431,tucurui,-3.7661,-49.6725,30.17,54,9,2.35,BR,1720102116
432,sassandra,4.95,-6.0833,26.68,69,78,3.89,CI,1720102118
433,yashkul',46.1711,45.3435,35.91,16,94,8.15,RU,1720102120
434,curillo,1.0333,-75.9191,21.12,99,100,0.72,CO,1720102122
435,al kharijah,25.4514,30.5464,42.31,7,3,5.42,EG,1720102123
436,nelson bay,-32.7167,152.15,16.11,71,98,1.34,AU,1720102125
437,tofol,5.3248,163.0078,27.44,81,100,8.62,FM,1720102127
438,galveston,29.3669,-94.9669,32.27,76,0,5.14,US,1720102129
439,moanda,-1.5575,13.2178,31.83,42,100,0.58,GA,1720102131
440,happy valley-goose bay,53.3168,-60.3315,16.28,84,100,6.61,CA,1720102133
441,alice springs,-23.7,133.8833,1.75,87,5,0.0,AU,1720102134
442,baswa,27.15,76.5833,26.7,84,100,3.57,IN,1720102136
443,minas de marcona,-15.2119,-75.1103,13.11,74,33,1.37,PE,1720102138
444,belyy yar,53.6039,91.3903,20.94,68,0,2.0,RU,1720102142
445,sarykemer,43.0,71.5,32.71,18,5,6.08,KZ,1720102144
446,shorapur,16.5167,76.75,28.52,58,100,7.5,IN,1720102146
447,bhalwal,32.272,72.9043,38.69,37,6,5.41,PK,1720102148
448,santa ana de yacuma,-13.75,-65.4333,29.13,45,2,2.18,BO,1720102149
449,panaba,21.2833,-88.2667,28.72,78,5,5.18,MX,1720102151
450,mil'kovo,55.6078,37.7956,32.25,43,37,7.64,RU,1720102153
451,esperanza,19.5847,-70.9849,29.32,80,100,3.13,DO,1720102155
452,snyder,32.7179,-100.9176,29.44,54,0,6.17,US,1720102157
453,lalago,-3.45,33.95,30.42,29,21,3.59,TZ,1720102159
454,shevchenko,48.5,35.0,32.51,23,100,5.76,UA,1720102161
455,surfside,25.8784,-80.1256,32.24,74,40,4.63,US,1720102162
456,mamuju,-2.6748,118.8885,25.41,90,99,1.5,ID,1720102164
457,antalaha,-14.9003,50.2788,23.94,66,91,4.92,MG,1720102166
458,siwa oasis,29.2041,25.5195,39.05,17,0,6.72,EG,1720102168
459,honcho,35.6931,139.9833,31.13,70,0,2.51,JP,1720102170
460,kerpen,50.8667,6.7,21.47,54,75,6.17,DE,1720102172
461,tallulah,32.4085,-91.1868,31.0,79,20,2.06,US,1720102173
462,nicoya,10.1483,-85.452,23.45,98,100,1.23,CR,1720102175
463,touros,-5.1989,-35.4608,27.43,70,99,6.96,BR,1720102177
464,conception bay south,47.4999,-52.9981,18.64,83,100,2.65,CA,1720102179
465,chilca,-12.5211,-76.7372,16.91,80,63,1.77,PE,1720102181
466,benguela,-12.5763,13.4055,24.04,68,25,4.64,AO,1720102183
467,torit,4.4133,32.5678,35.84,27,17,0.21,SS,1720102185
468,fontaine-les-dijon,47.3424,5.0201,21.0,78,75,4.12,FR,1720102186
469,guerrero negro,27.9769,-114.0611,20.07,80,96,1.48,MX,1720102188
470,zalingei,12.9096,23.4741,32.39,37,30,4.48,SD,1720102190
471,tralee,52.2704,-9.7026,14.14,82,75,7.72,IE,1720102192
472,parauapebas,-6.0675,-49.9022,30.99,54,0,0.0,BR,1720102194
473,fuglafjordur,62.244,-6.814,13.26,84,78,3.82,FO,1720102196
474,peshkopi,41.685,20.4289,20.5,70,100,1.44,AL,1720102198
475,selfoss,63.9331,-20.9971,12.14,72,100,4.7,IS,1720102199
476,ambon,-3.6954,128.1814,26.08,89,75,4.63,ID,1720102201
477,muddebihal,16.3333,76.1333,26.82,65,100,9.64,IN,1720102203
478,paraiso,9.8383,-83.8656,21.09,95,100,0.7,CR,1720102205
479,villamontes,-21.25,-63.5,19.79,48,4,1.88,BO,1720102207
480,loushanguan,28.1375,106.82,21.81,93,60,3.67,CN,1720102209
481,arraial do cabo,-22.9661,-42.0278,28.92,45,0,1.03,BR,1720102211
482,rundu,-17.9333,19.7667,29.88,11,19,3.13,,1720102212
483,arenapolis,-14.4503,-56.8461,29.74,32,65,2.11,BR,1720102214
484,razole,16.4833,81.8333,28.73,80,100,1.37,IN,1720102216
485,zhengjiatun,43.5064,123.5064,21.29,72,100,1.86,CN,1720102218
486,tumayr,25.7039,45.868,39.65,7,0,6.3,SA,1720102220
487,sitka,57.0531,-135.33,11.94,82,75,4.63,US,1720102222
488,shimoda,34.6667,138.95,27.84,77,4,5.62,JP,1720102224
489,yantarnyy,54.8717,19.9381,19.92,64,100,6.94,RU,1720102225
490,nieuw amsterdam,5.8833,-55.0833,31.01,70,40,2.06,SR,1720102227
491,gornozavodsk,58.3758,58.3211,28.7,60,44,1.82,RU,1720102229
492,guelendeng,10.9176,15.5501,22.94,80,100,8.42,TD,1720102231
493,grand falls-windsor,48.9332,-55.6649,23.61,66,100,3.19,CA,1720102233
494,las lomas,8.4333,-82.4,25.78,83,100,1.28,PA,1720102235
495,childress,34.4264,-100.204,29.4,51,0,4.12,US,1720102237
496,bardai,11.65,7.2333,30.24,50,72,3.32,NG,1720102238
497,kenai,60.5544,-151.2583,10.64,93,0,2.06,US,1720102240
498,tazacorte,28.629,-17.9293,23.97,77,40,4.63,ES,1720102242
499,radhanpur,23.8333,71.6,33.59,55,100,6.33,IN,1720102244
500,howard springs,-12.497,131.047,21.95,54,0,3.54,AU,1720102246
501,kratie,12.4881,106.0188,24.11,97,100,1.33,KH,1720102248
502,oodweyne,9.4092,45.064,32.88,29,92,7.25,SO,1720102249
503,porto novo,6.4965,2.6036,28.35,70,100,4.61,BJ,1720102251
504,vadso,70.0744,29.7487,15.49,71,75,1.54,NO,1720102253
505,doba,8.65,16.85,30.05,57,99,1.6,TD,1720102255
506,namsos,64.4662,11.4957,18.03,63,75,6.69,NO,1720102257
507,paraisopolis,-22.5542,-45.78,23.91,48,0,1.69,BR,1720102259
508,mubi,10.2676,13.2644,29.82,54,64,2.29,NG,1720102261
509,diepsloot,-25.9308,28.0123,18.22,32,0,2.68,ZA,1720102262
510,buga,3.9009,-76.2978,21.84,89,100,0.8,CO,1720102264
511,katsuren-haebaru,26.3369,127.8719,29.43,84,0,2.57,JP,1720102270
512,chulakkurgan,43.765,69.1814,31.8,21,10,6.74,KZ,1720102272
513,mlangali,-9.7833,34.5167,18.96,65,100,1.5,TZ,1720102273
514,maymana,35.9214,64.7836,36.98,9,65,2.58,AF,1720102275
515,ovalle,-30.5983,-71.2003,15.61,41,94,0.89,CL,1720102277
516,simanggang,1.2472,111.4528,24.29,99,98,0.83,MY,1720102281
517,dawei,14.0833,98.2,25.34,88,100,3.31,MM,1720102283
518,tolanaro,-25.0319,46.9987,21.99,80,0,4.26,MG,1720102285
519,susuman,62.7833,148.1667,13.24,85,78,2.58,RU,1720102286
520,colonia,50.9333,6.95,21.64,55,20,6.17,DE,1720102288
521,rongelap,11.1635,166.8941,28.22,78,100,5.81,MH,1720102290
522,enriquillo,17.9,-71.2333,31.82,63,100,4.27,DO,1720102292
523,dakhla,23.6848,-15.958,19.49,87,11,9.43,EH,1720102294
524,la ronge,55.1001,-105.2842,15.11,63,53,1.52,CA,1720102296
525,yeppoon,-23.1333,150.7333,17.92,71,100,10.66,AU,1720102384
526,aden,12.7794,45.0367,32.53,65,100,2.45,YE,1720102385
527,ubatuba,-23.4339,-45.0711,23.93,48,2,1.25,BR,1720102387
528,piracuruca,-3.9281,-41.7092,33.8,38,19,2.71,BR,1720102389
529,gbarnga,6.9956,-9.4722,27.46,66,98,1.44,LR,1720102391
530,nyurba,63.2842,118.3319,11.4,73,2,1.64,RU,1720102393
531,san clemente del tuyu,-36.3569,-56.7235,6.66,54,3,7.31,AR,1720102395
532,santa ana,33.7456,-117.8678,21.81,89,75,1.54,US,1720102397
533,valentin gomez farias,28.2167,-106.5833,23.54,57,3,3.11,MX,1720102398
534,san luis de la loma,17.2706,-100.8939,25.92,80,17,1.25,MX,1720102400
535,agoo,16.0833,120.1,26.71,86,100,3.02,PH,1720102402
536,qamdo,31.1667,97.2333,11.76,73,98,1.02,CN,1720102404
537,akureyri,65.6835,-18.0878,7.96,87,75,6.17,IS,1720102406
538,hirara,24.8,125.2833,29.52,76,15,4.09,JP,1720102408
539,plainview,40.7765,-73.4673,25.97,76,40,5.14,US,1720102409
540,labrador city,52.9463,-66.9114,16.95,82,100,6.69,CA,1720102411
541,kill devil hills,36.0307,-75.676,27.77,67,0,4.63,US,1720102409
542,sarkand,45.41,79.9186,20.53,60,89,1.68,KZ,1720102415
543,tyukhtet,56.5389,89.3011,18.65,92,78,2.08,RU,1720102417
544,altai,46.3722,96.2583,15.51,32,0,2.19,MN,1720102419
545,northam,51.0333,-4.2167,17.44,67,30,9.6,GB,1720102421
546,arizona city,32.7559,-111.671,32.69,47,5,5.22,US,1720102426
547,bambari,5.768,20.6757,30.11,55,100,1.73,CF,1720102428
548,howrah,22.5892,88.3103,29.0,94,75,3.09,IN,1720102432
549,yerofey pavlovich,53.9667,121.9667,20.27,72,62,2.13,RU,1720102434
550,pentecoste,-3.7928,-39.2703,29.75,47,64,4.81,BR,1720102436
551,figuig (centre),32.1089,-1.2286,40.47,7,13,3.67,MA,1720102437
552,polyarnyy,69.1989,33.4478,12.93,65,92,2.23,RU,1720102439
553,ghauspur,28.1391,69.0831,42.87,25,100,4.23,PK,1720102441
554,mulayjah,27.271,48.4242,43.3,7,0,8.43,SA,1720102443
555,ust-tsilma,65.441,52.1498,18.56,66,93,4.88,RU,1720102445
556,tuni,17.35,82.55,30.41,68,100,1.93,IN,1720102447
557,chaman,30.9236,66.4512,41.09,7,7,4.67,PK,1720102450
558,yokadouma,3.5167,15.05,24.55,82,100,2.12,CM,1720102452
559,ta`u,-14.2336,-169.5144,27.34,75,10,10.87,AS,1720102454
560,gaspe,48.8334,-64.4819,20.12,64,100,1.54,CA,1720102456
561,novospasskoye,53.1468,47.7514,33.41,34,9,4.78,RU,1720102458
562,choyr,46.3611,108.3611,23.36,32,71,4.94,MN,1720102462
563,maintirano,-18.0667,44.0167,25.22,55,6,4.93,MG,1720102463
564,puerto colombia,10.9878,-74.9547,29.05,73,100,2.9,CO,1720102465
565,pauini,-7.7136,-66.9764,30.84,45,2,1.01,BR,1720102467
566,timimoun,29.2639,0.231,47.21,4,0,1.54,DZ,1720102469
567,magadan,59.5667,150.8,10.73,92,99,1.8,RU,1720102471
568,meadow lake,34.8014,-106.5436,27.05,31,1,2.39,US,1720102473
569,san julian,21.0167,-102.1667,16.15,82,100,1.49,MX,1720102475
570,al quwayrah,29.8004,35.3116,35.0,11,0,5.28,JO,1720102477
571,aykhal,66.0,111.5,13.26,46,10,2.67,RU,1720102478
572,peniche,39.3558,-9.3811,24.5,79,5,4.63,PT,1720102480
573,flin flon,54.7682,-101.865,15.91,72,75,1.03,CA,1720102482
574,okha,53.5739,142.9478,11.76,91,12,0.33,RU,1720102484
575,lerwick,60.1545,-1.1494,12.0,78,100,4.51,GB,1720102486
576,luganville,-15.5333,167.1667,23.33,80,12,2.39,VU,1720102488
577,san luis,-33.295,-66.3356,8.5,38,100,6.78,AR,1720102492
578,lyepyel',54.8814,28.6932,25.23,71,98,3.56,BY,1720102493
579,dazhou,31.2159,107.5009,24.49,89,73,1.01,CN,1720102495
580,sanctuary point,-35.1114,150.629,12.96,83,100,4.14,AU,1720102497
581,alpine,32.835,-116.7664,19.26,83,0,0.0,US,1720102499
582,new norfolk,-42.7826,147.0587,2.62,97,6,1.41,AU,1720102501
583,sanming,26.2486,117.6186,27.0,70,0,1.64,CN,1720102503
584,san salvador de jujuy,-24.1946,-65.2971,13.74,59,0,0.87,AR,1720102505
585,ibshaway,29.358,30.6814,40.28,15,0,0.78,EG,1720102506
586,buellton,34.6136,-120.1927,15.58,94,0,0.0,US,1720102508
